---
- !ruby/object:Vehicle
  vehicle_id: '1166'
  trip: !ruby/object:Trip
    trip_id: '[@7.0.41893871@][3][1243541396687]/105__T1MF'
    trip_headsign: EAST - ORCHARD DOWNS
    route_id: TEAL
    block_id: T1MF
    direction: East
    service_id: T1MF
    shape_id: 12E TEAL 13
  location:
    :lat: 40.098103
    :lon: -88.218417
  previous_stop_id: FLBUSEY:3
  next_stop_id: FLRACE:3
  origin_stop_id: IT:5
  destination_stop_id: ODSS:1
  last_updated: 2013-08-13 19:13:00.000000000 -05:00
- !ruby/object:Vehicle
  vehicle_id: '1197'
  trip: !ruby/object:Trip
    trip_id: '[@15.0.63189138@][1][1338404910860]/0__Y1MF'
    trip_headsign: NORTH - MEIJER
    route_id: YELLOW EVENING
    block_id: Y1MF
    direction: North
    service_id: Y1MF
    shape_id: 100N
  location:
    :lat: 40.110137
    :lon: -88.228833
  previous_stop_id: PLAZA:4
  next_stop_id: WRTHLY:2
  origin_stop_id: SWALMART:1
  destination_stop_id: MEIJER:1
  last_updated: 2013-08-13 19:13:00.000000000 -05:00
- !ruby/object:Vehicle
  vehicle_id: '1181'
  trip: !ruby/object:Trip
    trip_id: '[@15.0.67924657@][2][1363728725942]/86__G3MF'
    trip_headsign: SOUTH - CAMPUS
    route_id: SILVER LIMITED EVENING
    block_id: G3MF
    direction: 
    service_id: G3MF
    shape_id: '[@15.0.67924657@]7'
  location:
    :lat: 40.107223
    :lon: -88.228833
  previous_stop_id: WRTCHAL:4
  next_stop_id: ARYWRT:3
  origin_stop_id: LSE:8
  destination_stop_id: PLAZA:4
  last_updated: 2013-08-13 19:12:48.000000000 -05:00
- !ruby/object:Vehicle
  vehicle_id: '0336'
  trip: !ruby/object:Trip
    trip_id: '[@7.0.41201218@][4][1243954833031]/20__SV4MF'
    trip_headsign: WEST -COUNTRY FAIR / PARKLAND
    route_id: GREEN EVENING
    block_id: SV4MF
    direction: West
    service_id: SV4MF
    shape_id: 50W GREEN 55
  location:
    :lat: 40.094683
    :lon: -88.19125
  previous_stop_id: CTGRVCO:2
  next_stop_id: SUNNYCREST:2
  origin_stop_id: ODSS:1
  destination_stop_id: PKLN:1
  last_updated: 2013-08-13 19:13:03.000000000 -05:00
- !ruby/object:Vehicle
  vehicle_id: '1178'
  trip: !ruby/object:Trip
    trip_id: 2GR741__BB2MF
    trip_headsign: WEST - PARKLAND COLLEGE
    route_id: GREY EVENING
    block_id: BB2MF
    direction: West
    service_id: BB2MF
    shape_id: 70W
  location:
    :lat: 40.123247
    :lon: -88.232167
  previous_stop_id: 5THTRMNT:4
  next_stop_id: 5THVIN:4
  origin_stop_id: LSE:2
  destination_stop_id: PKLN:1
  last_updated: 2013-08-13 19:13:03.000000000 -05:00
- !ruby/object:Vehicle
  vehicle_id: '1351'
  trip: !ruby/object:Trip
    trip_id: '[@15.0.63189004@][2][1340829029385]/16__Y3MF'
    trip_headsign: SOUTH - SAVOY
    route_id: YELLOW
    block_id: Y3MF
    direction: South
    service_id: Y3MF
    shape_id: YELLOW 13
  location:
    :lat: 40.127237
    :lon: -88.240917
  previous_stop_id: BRADCMI:1
  next_stop_id: BRADHKRY:1
  origin_stop_id: MEIJER:1
  destination_stop_id: IT:5
  last_updated: 2013-08-13 19:13:00.000000000 -05:00
- !ruby/object:Vehicle
  vehicle_id: '1194'
  trip: !ruby/object:Trip
    trip_id: 5GN576__GN5MF
    trip_headsign: WEST - HOLIDAY PARK
    route_id: GREEN
    block_id: GN5MF
    direction: West
    service_id: GN5MF
    shape_id: 5W-PMLSE->
  location:
    :lat: 40.110517
    :lon: -88.225333
  previous_stop_id: GRNMAT:1
  next_stop_id: GRN6TH:1
  origin_stop_id: LSE:8
  destination_stop_id: MPLPKLWNDL:1
  last_updated: 2013-08-13 19:12:45.000000000 -05:00
- !ruby/object:Vehicle
  vehicle_id: 0962
  trip: !ruby/object:Trip
    trip_id: '[@7.0.37329904@][1][1207841452671]/22__AB1'
    trip_headsign: NORTH - ILLINOIS TERMINAL
    route_id: AIR BUS
    block_id: AB1
    direction: North
    service_id: AB1
    shape_id: AIR BUS 4
  location:
    :lat: 40.090757
    :lon: -88.238167
  previous_stop_id: ASHTON:2
  next_stop_id: E14:2
  origin_stop_id: UIIA:1
  destination_stop_id: IT:2
  last_updated: 2013-08-13 19:12:48.000000000 -05:00
- !ruby/object:Vehicle
  vehicle_id: '1188'
  trip: !ruby/object:Trip
    trip_id: '[@14.0.56288404@][2][1303315931316]/9__R1MF'
    trip_headsign: U - LINCOLN SQUARE
    route_id: RED
    block_id: R1MF
    direction: Urbana
    service_id: R1MF
    shape_id: '[@14.0.56288404@]42'
  location:
    :lat: 40.08227
    :lon: -88.190417
  previous_stop_id: MHRYPHILO:2
  next_stop_id: PHILOSLVR:8
  origin_stop_id: NWTNNBL:3
  destination_stop_id: LSE:1
  last_updated: 2013-08-13 19:12:45.000000000 -05:00
- !ruby/object:Vehicle
  vehicle_id: '1174'
  trip: !ruby/object:Trip
    trip_id: '[@7.0.41201218@][3][1243953493328]/0__GN8MF'
    trip_headsign: EAST - ORCHARD DOWNS
    route_id: GREEN EVENING
    block_id: GN8MF
    direction: East
    service_id: GN8MF
    shape_id: GREEN EVENING 39
  location:
    :lat: 40.098483
    :lon: -88.195583
  previous_stop_id: CTGRVDE:4
  next_stop_id: FLLNDN:3
  origin_stop_id: CF:1
  destination_stop_id: ODSS:1
  last_updated: 2013-08-13 19:13:03.000000000 -05:00
- !ruby/object:Vehicle
  vehicle_id: '0322'
  trip: !ruby/object:Trip
    trip_id: '[@7.0.41903462@][4][1243545628328]/0__T3MF'
    trip_headsign: WEST - ILLINOIS TERMINAL
    route_id: TEAL EVENING
    block_id: T3MF
    direction: West
    service_id: T3MF
    shape_id: TEAL EVENING 12
  location:
    :lat: 40.114823
    :lon: -88.23875
  previous_stop_id: WHT1ST:1
  next_stop_id: CHSTRWTR:1
  origin_stop_id: ODSS:1
  destination_stop_id: IT:5
  last_updated: 2013-08-13 19:12:48.000000000 -05:00
- !ruby/object:Vehicle
  vehicle_id: '1162'
  trip: !ruby/object:Trip
    trip_id: '[@14.0.56289372@][3][1304108342997]/3__GR2MF'
    trip_headsign: EAST - LINCOLN SQUARE
    route_id: GREY
    block_id: GR2MF
    direction: East
    service_id: GR2MF
    shape_id: 7E->LSG
  location:
    :lat: 40.117357
    :lon: -88.22775
  previous_stop_id: PKWRT:6
  next_stop_id: PKMAT:3
  origin_stop_id: PKLN:1
  destination_stop_id: LSE:1
  last_updated: 2013-08-13 19:13:03.000000000 -05:00
- !ruby/object:Vehicle
  vehicle_id: '0333'
  trip: !ruby/object:Trip
    trip_id: '[@15.0.63189138@][2][1338410124117]/2__Y6MF'
    trip_headsign: SOUTH - SAVOY
    route_id: YELLOW EVENING
    block_id: Y6MF
    direction: South
    service_id: Y6MF
    shape_id: '[@15.0.63189138@]10'
  location:
    :lat: 40.09443
    :lon: -88.245417
  previous_stop_id: FOXSTE:4
  next_stop_id: SMRGRIF:3
  origin_stop_id: IT:5
  destination_stop_id: SWALMART:1
  last_updated: 2013-08-13 19:12:57.000000000 -05:00
- !ruby/object:Vehicle
  vehicle_id: '0317'
  trip: !ruby/object:Trip
    trip_id: '[@15.0.63189138@][1][1338405367103]/1__Y5MF'
    trip_headsign: NORTH - MEIJER
    route_id: YELLOW EVENING
    block_id: Y5MF
    direction: North
    service_id: Y5MF
    shape_id: 100N
  location:
    :lat: 40.06745
    :lon: -88.238667
  previous_stop_id: CBRTPK:1
  next_stop_id: PARKVIEW:2
  origin_stop_id: SWALMART:1
  destination_stop_id: MEIJER:1
  last_updated: 2013-08-13 19:13:00.000000000 -05:00
- !ruby/object:Vehicle
  vehicle_id: '0326'
  trip: !ruby/object:Trip
    trip_id: '[@7.0.41201218@][3][1243953666265]/1__L2MF'
    trip_headsign: EAST - ORCHARD DOWNS
    route_id: GREEN EVENING
    block_id: L2MF
    direction: East
    service_id: L2MF
    shape_id: GREEN EVENING 52
  location:
    :lat: 40.113557
    :lon: -88.28
  previous_stop_id: BL:1
  next_stop_id: SPFLDMATS:3
  origin_stop_id: PKLN:1
  destination_stop_id: ODSS:1
  last_updated: 2013-08-13 19:13:03.000000000 -05:00
- !ruby/object:Vehicle
  vehicle_id: '1179'
  trip: !ruby/object:Trip
    trip_id: '[@15.0.63189138@][1][1343058961383]/0__Y8MF'
    trip_headsign: NORTH - MEIJER
    route_id: YELLOW EVENING
    block_id: Y8MF
    direction: North
    service_id: Y8MF
    shape_id: 100NIT->
  location:
    :lat: 40.142753
    :lon: -88.25375
  previous_stop_id: TCBTGT:1
  next_stop_id: TCBMJR:2
  origin_stop_id: IT:5
  destination_stop_id: MEIJER:1
  last_updated: 2013-08-13 19:13:03.000000000 -05:00
- !ruby/object:Vehicle
  vehicle_id: '1191'
  trip: !ruby/object:Trip
    trip_id: '[@15.0.61662606@][20][1329164353581]/24__GR1MF'
    trip_headsign: CAMPUS
    route_id: BROWN
    block_id: GR1MF
    direction: B
    service_id: GR1MF
    shape_id: '[@15.0.61662606@]138'
  location:
    :lat: 40.092657
    :lon: -88.258917
  previous_stop_id: BDMRDVD:3
  next_stop_id: PSPCTASRD:4
  origin_stop_id: PKLN:1
  destination_stop_id: GRNWRT:5
  last_updated: 2013-08-13 19:13:03.000000000 -05:00
- !ruby/object:Vehicle
  vehicle_id: '1190'
  trip: !ruby/object:Trip
    trip_id: '[@14.0.56288268@][4][1302638027523]/20__GR4MF'
    trip_headsign: WEST - COUNTRY FAIR
    route_id: BLUE
    block_id: GR4MF
    direction: West
    service_id: GR4MF
    shape_id: 4W
  location:
    :lat: 40.09861
    :lon: -88.276583
  previous_stop_id: MATSMDWDR:4
  next_stop_id: KBYRSWD:1
  origin_stop_id: IT:1
  destination_stop_id: CF:1
  last_updated: 2013-08-13 19:13:00.000000000 -05:00
- !ruby/object:Vehicle
  vehicle_id: '1347'
  trip: !ruby/object:Trip
    trip_id: '[@14.0.51617008@][4][1275919073171]/20__O2MF'
    trip_headsign: WEST - PLASTIPAK
    route_id: ORANGE
    block_id: O2MF
    direction: West
    service_id: O2MF
    shape_id: ORANGE 31
  location:
    :lat: 40.112987
    :lon: -88.2895
  previous_stop_id: GC:2
  next_stop_id: PLASTIPAK:2
  origin_stop_id: UWALMART:2
  destination_stop_id: PLASTIPAK:2
  last_updated: 2013-08-13 19:12:51.000000000 -05:00
- !ruby/object:Vehicle
  vehicle_id: '1175'
  trip: !ruby/object:Trip
    trip_id: '[@15.0.61662606@][10][1329151935979]/27__BA2MF'
    trip_headsign: SOUTHWOOD / COUNTRY FAIR / PARKLAND
    route_id: BROWN
    block_id: BA2MF
    direction: A
    service_id: BA2MF
    shape_id: '[@15.0.61662606@]694'
  location:
    :lat: 40.12711
    :lon: -88.258167
  previous_stop_id: BRADPSPCT:3
  next_stop_id: HRISBRAD:3
  origin_stop_id: PKLN:1
  destination_stop_id: PLAZA:1
  last_updated: 2013-08-13 19:12:51.000000000 -05:00
- !ruby/object:Vehicle
  vehicle_id: '1182'
  trip: !ruby/object:Trip
    trip_id: BA4-5__B2MF
    trip_headsign: EAST - LINCOLN SQUARE
    route_id: GREY EVENING
    block_id: B2MF
    direction: East
    service_id: B2MF
    shape_id: 70E
  location:
    :lat: 40.127173
    :lon: -88.261
  previous_stop_id: PSPCTDNSN:2
  next_stop_id: PSPCTFRNS:2
  origin_stop_id: PKLN:1
  destination_stop_id: LSE:2
  last_updated: 2013-08-13 19:13:03.000000000 -05:00
- !ruby/object:Vehicle
  vehicle_id: 0959
  trip: !ruby/object:Trip
    trip_id: '[@14.0.51617008@][3][1275938397234]/4__O3MF'
    trip_headsign: EAST - LINCOLN SQUARE
    route_id: ORANGE
    block_id: O3MF
    direction: East
    service_id: O3MF
    shape_id: ORANGE 11
  location:
    :lat: 40.11628
    :lon: -88.249417
  previous_stop_id: UNIELM:3
  next_stop_id: UNIRNDLF:3
  origin_stop_id: PLASTIPAK:2
  destination_stop_id: LSE:1
  last_updated: 2013-08-13 19:12:57.000000000 -05:00
- !ruby/object:Vehicle
  vehicle_id: '0331'
  trip: !ruby/object:Trip
    trip_id: '[@7.0.41201552@][3][1238433211390]/8__O4MF'
    trip_headsign: EAST - URBANA WALMART
    route_id: ORANGE EVENING
    block_id: O4MF
    direction: East
    service_id: O4MF
    shape_id: E ORANGE EVE
  location:
    :lat: 40.11286
    :lon: -88.20125
  previous_stop_id: MNWBR:3
  next_stop_id: MNGRSBCH:3
  origin_stop_id: LSE:2
  destination_stop_id: UWALMART:1
  last_updated: 2013-08-13 19:13:03.000000000 -05:00
- !ruby/object:Vehicle
  vehicle_id: '0321'
  trip: !ruby/object:Trip
    trip_id: '[@7.0.41677083@][2][1238529695031]/20__I1LIM'
    trip_headsign: SOUTH - CAMPUS
    route_id: ILLINI LIMITED EVENING
    block_id: I1LIM
    direction: South
    service_id: I1LIM
    shape_id: ILLINI 845 315
  location:
    :lat: 40.113367
    :lon: -88.224083
  previous_stop_id: GWNMN:4
  next_stop_id: GRNMAT:1
  origin_stop_id: LNCLNKLRNY:1
  destination_stop_id: ARYWRT:3
  last_updated: 2013-08-13 19:12:51.000000000 -05:00
- !ruby/object:Vehicle
  vehicle_id: '1004'
  trip: !ruby/object:Trip
    trip_id: '[@15.0.64600293@][2][1340052703956]/1__RUB2MF'
    trip_headsign: SOUTH - LINCOLN SQUARE
    route_id: RUBY
    block_id: RUB2MF
    direction: South
    service_id: RUB2MF
    shape_id: '[@15.0.64600293@]2'
  location:
    :lat: 40.13395
    :lon: -88.19025
  previous_stop_id: ANTHYCLMBA:1
  next_stop_id: ANTHYDUSK:2
  origin_stop_id: ARPRTCNGHM:3
  destination_stop_id: LSE:2
  last_updated: 2013-08-13 19:12:42.000000000 -05:00
- !ruby/object:Vehicle
  vehicle_id: '1170'
  trip: !ruby/object:Trip
    trip_id: 3GN306__GN3MF
    trip_headsign: EAST - COUNTRY FAIR
    route_id: GREEN
    block_id: GN3MF
    direction: East
    service_id: GN3MF
    shape_id: 5ETOCF
  location:
    :lat: 40.106083
    :lon: -88.295833
  previous_stop_id: WLMFROAK:1
  next_stop_id: WLMBRNTWD:1
  origin_stop_id: MPLPKLWNDL:1
  destination_stop_id: CF:1
  last_updated: 2013-08-13 19:12:57.000000000 -05:00
